[
  {
    "client": "Alberta B.",
    "pickupTime": 1528498800000,
    "locationFrom": {
      "latitude":"-33.7304876",
      "longitude":"150.9703553",
      "suburb":"Castle Hill",
      "postcode":"2154",
      "placeName":"14 Castle St, Castle Hill NSW 2154"
    },
    "locationTo": {
      "latitude":"-33.7941762",
      "longitude":"151.1860217",
      "suburb":"Chatswood",
      "postcode":"2067",
      "placeName":"345 Victoria Ave, Chatswood NSW 2067"
    },
    "fbLink": "www.facebook.com/events/965341583633198",
    "driverGender": "Female",
    "carType": "SUV",
    "status": "Open",
    "facilitatorId": 1
  },
  {
    "client": "Charlotte P.",
    "pickupTime": 1528099200000,
    "locationFrom": {
      "latitude":"-33.7304876",
      "longitude":"150.9703553",
      "suburb":"Pennant Hills",
      "postcode":"2120",
      "placeName":"330 Pennant Hills Rd, Pennant Hills NSW 2120"
    },
    "locationTo": {
      "latitude":"-33.8130066",
      "longitude":"150.9828128",
      "suburb":"Westmead",
      "postcode":"2145",
      "placeName":"74 Hawkesbury Rd, Westmead NSW 2145"
    },
    "fbLink": "www.facebook.com/events/965341583633198",
    "driverGender": "All",
    "carType": "Normal",
    "status": "Open",
    "facilitatorId": 1
  },
  {
    "client": "Caryn L.",
    "pickupTime": 1528588800000,
    "locationFrom": {
      "latitude":"-33.7447489",
      "longitude":"150.9823586",
      "suburb":"Baulkham Hills",
      "postcode":"2153",
      "placeName":"495 Windsor Rd, Baulkham Hills NSW 2153"
    },
    "locationTo": {
      "latitude":"-33.6980342",
      "longitude":"150.9439976",
      "suburb":"Beaumont Hills",
      "postcode":"2155",
      "placeName":"1 Arnold Janssen Dr, Beaumont Hills NSW 2155"
    },
    "fbLink": "www.facebook.com/events/965341583633198",
    "driverGender": "Female",
    "carType": "SUV",
    "status": "Ended",
    "facilitatorId": 1
  },
  {
    "client": "Caroline K.",
    "pickupTime": 1528596000000,
    "locationFrom": {
      "latitude":"-33.7275478",
      "longitude":"150.9250076",
      "suburb":"Glenwood",
      "postcode":"2768",
      "placeName":"72 Glenwood Park Dr, Glenwood NSW 2768"
    },
    "locationTo": {
      "latitude":"-33.6980342",
      "longitude":"150.9439976",
      "suburb":"Beaumont Hills",
      "postcode":"2155",
      "placeName":"1 Arnold Janssen Dr, Beaumont Hills NSW 2155"
    },
    "fbLink": "www.facebook.com/events/965341583633198",
    "driverGender": "Male",
    "carType": "Normal",
    "status": "Open",
    "facilitatorId": 2
  },
  {
    "client": "Christine N.",
    "pickupTime": 1529218800000,
    "locationFrom": {
      "latitude":"-33.6980342",
      "longitude":"150.9439976",
      "suburb":"Beaumont Hills",
      "postcode":"2155",
      "placeName":"1 Arnold Janssen Dr, Beaumont Hills NSW 2155"
    },
    "locationTo": {
      "latitude":"-33.7941762",
      "longitude":"151.1860217",
      "suburb":"Chatswood",
      "postcode":"2067",
      "placeName":"345 Victoria Ave, Chatswood NSW 2067"
    },
    "fbLink": "www.facebook.com/events/965341583633198",
    "driverGender": "All",
    "carType": "SUV",
    "status": "Ended",
    "facilitatorId": 2
  },
  {
    "client": "Christopher M.",
    "pickupTime": 1529200800000,
    "locationFrom": {
      "latitude":"-33.7304876",
      "longitude":"150.9703553",
      "suburb":"Castle Hill",
      "postcode":"2154",
      "placeName":"14 Castle St, Castle Hill NSW 2154"
    },
    "locationTo": {
        "latitude":"-33.7447489",
        "longitude":"150.9823586",
        "suburb":"Baulkham Hills",
        "postcode":"2153",
        "placeName":"495 Windsor Rd, Baulkham Hills NSW 2153"
    },
    "fbLink": "www.facebook.com/events/965341583633198",
    "driverGender": "Female",
    "carType": "Normal",
    "status": "Open",
    "facilitatorId": 2
  },
  {
    "client": "Chad M.",
    "pickupTime": 1528596000000,
    "locationFrom": {
      "latitude":"-33.7304876",
      "longitude":"150.9703553",
      "suburb":"Castle Hill",
      "postcode":"2154",
      "placeName":"14 Castle St, Castle Hill NSW 2154"
    },
    "locationTo": {
      "latitude":"-33.7447489",
      "longitude":"150.9823586",
      "suburb":"Baulkham Hills",
      "postcode":"2153",
      "placeName":"495 Windsor Rd, Baulkham Hills NSW 2153"
    },
    "fbLink": "www.facebook.com/events/965341583633198",
    "driverGender": "Male",
    "carType": "SUV",
    "status": "Open",
    "facilitatorId": 3
  },
  {
    "client": "Carine J.",
    "pickupTime": 1531036800000,
    "locationFrom": {
      "latitude":"-33.7447489",
      "longitude":"150.9823586",
      "suburb":"Baulkham Hills",
      "postcode":"2153",
      "placeName":"495 Windsor Rd, Baulkham Hills NSW 2153"
    },
    "locationTo": {
      "latitude":"-33.7304876",
      "longitude":"150.9703553",
      "suburb":"Castle Hill",
      "postcode":"2154",
      "placeName":"14 Castle St, Castle Hill NSW 2154"
    },
    "fbLink": "www.facebook.com/events/965341583633198",
    "driverGender": "All",
    "carType": "Normal",
    "status": "Ended",
    "facilitatorId": 3
  },
  {
    "client": "Chris T.",
    "pickupTime": 1531526400000,
    "locationFrom": {
      "latitude":"-33.7447489",
      "longitude":"150.9823586",
      "suburb":"Baulkham Hills",
      "postcode":"2153",
      "placeName":"495 Windsor Rd, Baulkham Hills NSW 2153"
    },
    "locationTo": {
      "latitude":"-33.7722269",
      "longitude":"150.9185028",
      "suburb":"Seven Hills",
      "postcode":"2147",
      "placeName":"5 Artillery Cres, Seven Hills NSW 2147"
    },
    "fbLink": "www.facebook.com/events/965341583633198",
    "driverGender": "Female",
    "carType": "SUV",
    "status": "Open",
    "facilitatorId": 3
  }
]
